City_ID,City,Country,Max Temp,Current Description,Lat,Lng,Hotel Name
4,Antofagasta,CL,69.6,overcast clouds,-23.65,-70.4,"Holiday Inn Express Antofagasta, an IHG Hotel"
5,Sao Joao Da Barra,BR,77.09,light rain,-21.6403,-41.0511,Pousada Porto De Canoas
6,Los Llanos De Aridane,ES,60.55,clear sky,28.6585,-17.9182,Valle Aridane
7,Hilo,US,73.8,moderate rain,19.7297,-155.09,Hilo Hawaiian Hotel
8,Vaini,TO,84.36,few clouds,-21.2,-175.2,Keleti Beach Resort
10,Atuona,PF,79.23,clear sky,-9.8,-139.0333,Villa Enata
11,Kalmunai,LK,72.66,scattered clouds,7.4167,81.8167,VS Villa
13,Cap Malheureux,MU,80.47,overcast clouds,-19.9842,57.6142,Pereybere Hotel & Spa
14,Punta Arenas,CL,62.71,clear sky,-53.15,-70.9167,Hotel Hain
15,Carutapera,BR,80.49,overcast clouds,-1.195,-46.02,Lidera
19,Butaritari,KI,81.39,scattered clouds,3.0707,172.7902,Isles Sunset Lodge
20,Mar Del Plata,AR,69.87,clear sky,-38.0023,-57.5575,Gran Hotel Mar del Plata
23,Tual,ID,83.08,heavy intensity rain,-5.6667,132.75,Grand Vilia Hotel
27,Bandundu,CD,72.61,overcast clouds,-3.3167,17.3667,Coja Color
28,Rikitea,PF,77.34,clear sky,-23.1203,-134.9692,People ThankYou
31,Kapaa,US,78.78,broken clouds,22.0752,-159.319,Sheraton Kauai Coconut Beach Resort
34,Presidencia Roque Saenz Pena,AR,88.65,clear sky,-26.7852,-60.4388,Hotel Aconcagua
35,Ahipara,NZ,72.18,overcast clouds,-35.1667,173.1667,Ahipara Holiday Park
36,Port Alfred,ZA,62.82,overcast clouds,-33.5906,26.891,The Halyards Hotel
37,Njeru,UG,67.37,moderate rain,0.4186,33.1731,2 Friends Guesthouse and Restaurant
38,Bredasdorp,ZA,60.28,overcast clouds,-34.5322,20.0403,Bredasdorp Country Manor
39,Hualmay,PE,71.78,scattered clouds,-11.0964,-77.6139,Hotel Villa Kitzia Huacho
40,Tarakan,ID,76.5,moderate rain,3.3,117.6333,RedDoorz Syariah near Taman Berlabuh Tarakan
42,Sampit,ID,73.83,light rain,-2.5333,112.95,Aquarius Boutique Hotel Sampit
44,Kununurra,AU,82.38,broken clouds,-15.7667,128.7333,Hotel Kununurra
49,Sinnamary,GF,78.03,overcast clouds,5.3833,-52.95,ALETHEIA Appartement Sinnamary
51,Ancud,CL,65.73,clear sky,-41.8697,-73.8203,Hotel Arena Gruesa
52,Portales,US,72.34,overcast clouds,34.1862,-103.3344,"Holiday Inn Express & Suites Portales, an IHG Hotel"
53,Batemans Bay,AU,71.2,overcast clouds,-35.7167,150.1833,Batemans Bay Marina Resort
54,Ponta Do Sol,PT,63.23,clear sky,32.6667,-17.1,Hotel do Campo
55,Castro,BR,65.43,clear sky,-24.7911,-50.0119,CHACARA BAILLY
56,Hermanus,ZA,66.9,scattered clouds,-34.4187,19.2345,Misty Waves Boutique Hotel
59,Hobart,AU,66.25,scattered clouds,-42.8794,147.3294,Mantra on Collins Hobart
60,Wanning,CN,69.42,overcast clouds,18.8003,110.3967,Paradise Hotel
61,Dicabisagan,PH,74.95,scattered clouds,17.0818,122.4157,Nancy Montanes Bernardo
66,Uarini,BR,78.75,overcast clouds,-2.99,-65.1083,
67,Buritizeiro,BR,72.95,moderate rain,-17.3511,-44.9622,Santos Palace Hotel
68,Zaraza,VE,86.36,overcast clouds,9.3503,-65.3245,Hotel Zaraza
70,Portobelo,PA,85.86,broken clouds,9.55,-79.65,Scuba Portobelo
73,Basoko,CD,75.11,overcast clouds,1.2391,23.616,Jackyna Hotel
75,Puerto Ayora,EC,76.96,overcast clouds,-0.7393,-90.3518,Finch Bay Galapagos Hotel
76,Avarua,CK,80.65,moderate rain,-21.2078,-159.775,Paradise Inn
77,Lubango,AO,63.3,broken clouds,-14.9172,13.4925,Hotel Serra da Chela
78,Georgetown,MY,78.89,few clouds,5.4112,100.3354,Cititel Penang
80,Alofi,NU,82.29,scattered clouds,-19.0595,-169.9187,Taloa Heights
81,Bati,ET,62.33,few clouds,11.1833,40.0167,Adi 01 Kebele
89,Ritchie,ZA,67.17,overcast clouds,-29.038,24.6028,Riverside Country Club Modderrivier
90,Campestre,BR,64.92,light rain,-21.7111,-46.2464,O Precinho
91,Mahebourg,MU,79.25,broken clouds,-20.4081,57.7,Shandrani Beachcomber Resort & Spa
92,Ampanihy,MG,73.94,overcast clouds,-24.7,44.75,Angora Hotel
93,Port Elizabeth,ZA,60.1,overcast clouds,-33.918,25.5701,39 On Nile Guest House
95,Meulaboh,ID,74.91,broken clouds,4.1363,96.1285,Kost Pria
100,Mareeba,AU,86.32,broken clouds,-17.0,145.4333,Trinity Plains Tourist Park
101,Hithadhoo,MV,81.37,scattered clouds,-0.6,73.0833,Scoop Guest House
103,Xiamen,CN,62.26,overcast clouds,24.4798,118.0819,Xiamen Dongchen Hotel
108,Bathsheba,BB,81.21,scattered clouds,13.2167,-59.5167,Atlantis Hotel
110,Cape Town,ZA,67.12,clear sky,-33.9258,18.4232,Southern Sun Waterfront Cape Town
111,Saint-Pierre,RE,78.48,clear sky,-21.3393,55.4781,Lindsey Hôtel
112,San Felipe,VE,76.6,broken clouds,10.3399,-68.7425,Posada Llovizna Rodríguez
113,Chuy,UY,70.18,clear sky,-33.6971,-53.4616,Nuevo Hotel Plaza
119,Arraial Do Cabo,BR,75.06,scattered clouds,-22.9661,-42.0278,Pousada Porto Praia
121,Port Blair,IN,75.16,overcast clouds,11.6667,92.75,"Welcomhotel By ITC Hotels, Bay Island, Port Blair"
122,Sambava,MG,78.3,few clouds,-14.2667,50.1667,Melrose
125,Andros Town,BS,73.36,clear sky,24.7,-77.7667,Hanks place
129,Porto Novo,BJ,79.23,overcast clouds,6.4965,2.6036,Tour Eiffel Hotel Benin
132,Pascagoula,US,64.72,clear sky,30.3658,-88.5561,Regency Inn
134,Bambous Virieux,MU,79.21,broken clouds,-20.3428,57.7575,Casa Tia Villa
135,Champerico,GT,84.34,clear sky,14.3,-91.9167,"Hotel y restaurante ""El Diamante"""
136,Saldanha,ZA,63.88,clear sky,-33.0117,17.9442,Blue Bay Lodge
138,Beira,MZ,82.49,broken clouds,-19.8436,34.8389,Beira Terrace Hotel
144,Namatanai,PG,80.11,light rain,-3.6667,152.4333,Seagulls Inn Namatani
148,Vao,NC,76.77,few clouds,-22.6667,167.4833,Hotel Kou-Bugny
149,Santiago Del Estero,AR,78.8,overcast clouds,-27.7951,-64.2615,Apartamentos Castelli 90
150,Labuhan,ID,77.86,overcast clouds,-6.8844,112.2051,PT PPI Lamongan Tambak C
153,Bontang,ID,74.7,moderate rain,0.1333,117.5,KOPKAR Hotel Bintang Sintuk
155,East London,ZA,62.29,overcast clouds,-33.0153,27.9116,Tu Casa
157,Padang,ID,76.33,overcast clouds,-0.9492,100.3543,Mercure Padang
158,Blackwater,AU,81.21,broken clouds,-23.5833,148.8833,Blackwater Motor Inn
159,Yarada,IN,66.52,mist,17.65,83.2667,Yarada Jungle Beach Resorts
160,Nyaunglebin,MM,61.79,clear sky,17.95,96.7333,Thi ha
161,Ribeira Grande,PT,61.09,overcast clouds,38.5167,-28.7,Quinta da Meia Eira
163,Praya,CV,72.14,few clouds,14.9215,-23.5087,LT Aparthotel
166,Augusto Correa,BR,79.66,broken clouds,-1.0217,-46.635,Fazenda Bacuri
171,Bengkulu,ID,74.59,overcast clouds,-3.8004,102.2655,Grage Hotel Bengkulu
172,Puerto Carreno,CO,88.84,overcast clouds,6.189,-67.4859,Casa Hotel Victoria
173,Kaitangata,NZ,60.93,scattered clouds,-46.2817,169.8464,Kaitangata Motor Camp
174,Sawankhalok,TH,66.56,clear sky,17.316,99.8319,Boon Bunleng Resort
179,Coruripe,BR,80.24,overcast clouds,-10.1256,-36.1756,Pousada e Hotel Litoral Sul
180,Mogadishu,SO,78.94,light rain,2.0371,45.3438,Hotel Juba
182,Bria,CF,74.82,overcast clouds,6.5423,21.9863,WFP Guesthouse
184,Tabou,CI,80.76,few clouds,4.423,-7.3528,hotêl doufoulougou
189,Proddatur,IN,65.03,clear sky,14.7333,78.55,Sri Swasthik Residency
190,Lorengau,PG,80.76,overcast clouds,-2.0226,147.2712,Lorengau Harbourside Hotel
193,Gushikawa,JP,71.19,broken clouds,26.3544,127.8686,Kirari Guest House
195,Palatka,US,65.44,clear sky,29.6486,-81.6376,"Holiday Inn Express & Suites Palatka Northwest, an IHG Hotel"
198,Kilindoni,TZ,81.91,clear sky,-7.9139,39.6668,Bustani B&B
201,Aitape,PG,80.24,overcast clouds,-3.1374,142.3475,
202,Esperance,AU,63.68,broken clouds,-33.8667,121.9,Hospitality Esperance
205,Saint-Philippe,RE,78.39,overcast clouds,-21.3585,55.7679,"Chambres d'hôte ""La Trinité"""
206,Isangel,VU,82.42,light rain,-19.55,169.2667,Tanna Lodge
209,Acapulco,MX,84.02,clear sky,16.8634,-99.8901,HS Hotsson Smart Acapulco
211,Meiganga,CM,69.53,clear sky,6.5167,14.3,DFR HOUSE
212,Vila Franca Do Campo,PT,61.21,overcast clouds,37.7167,-25.4333,Pestana Bahia Praia
215,Souillac,MU,79.36,broken clouds,-20.5167,57.5167,Shanti Maurice Resort & Spa
216,Richards Bay,ZA,69.06,light rain,-28.783,32.0377,BON Hotel Waterfront Richards Bay
220,New Norfolk,AU,65.91,broken clouds,-42.7826,147.0587,The Shingles Riverside Cottages
221,Buala,SB,82.26,light rain,-8.145,159.5921,Maringe Lagoon Lodge
223,San Francisco Del Mar,MX,84.29,clear sky,16.2333,-94.65,
224,Geraldton,AU,66.61,clear sky,-28.7667,114.6,Broadwater Mariner Resort
225,Kismayo,SO,80.33,overcast clouds,-0.3582,42.5454,Agan-Hotel
227,Porto Santo,PT,64.78,broken clouds,33.072,-16.3415,Hotel Porto Santo & Spa
228,Maues,BR,77.05,overcast clouds,-3.3836,-57.7186,Hotel Miramar
229,Loja,EC,63.01,light rain,-3.9931,-79.2042,Hotel Libertador
230,San Cristobal,VE,77.18,overcast clouds,7.7669,-72.225,Posada Villaven C.A.
231,Aquiraz,BR,82.49,scattered clouds,-3.9014,-38.3911,Pousada Rua Camurupim
241,Pemba,MZ,82.04,broken clouds,-12.974,40.5178,Guesthouse Samotina
242,Damara,CF,85.42,overcast clouds,4.9608,18.7035,
243,Benguela,AO,75.06,clear sky,-12.5763,13.4055,Hotel Praia Morena
244,Yulara,AU,80.44,overcast clouds,-25.2406,130.9889,Desert Gardens Hotel - Ayers Rock Resort
246,Morondava,MG,78.46,broken clouds,-20.2833,44.2833,La Case Bambou
247,Ishikawa,JP,71.92,broken clouds,26.4233,127.8214,Sheraton Okinawa Sunmarina Resort
249,Luganville,VU,82.44,scattered clouds,-15.5333,167.1667,The Espiritu Hotel
250,Winslow,US,64.58,broken clouds,35.0242,-110.6974,Best Western Plus Winslow Inn
252,Clearwater,US,67.96,clear sky,27.9659,-82.8001,Shephard's Beach Resort
253,Salta,AR,70.09,overcast clouds,-24.7859,-65.4117,Hotel Alejandro I
255,Kasongo,CD,67.84,overcast clouds,-4.45,26.6667,Guest Hôtel
256,Broken Hill,AU,81.64,clear sky,-31.95,141.4333,Royal Exchange Hotel
257,Cabedelo,BR,81.27,scattered clouds,-6.9811,-34.8339,Hotel Pigalle
258,Marsh Harbour,BS,72.86,clear sky,26.5412,-77.0636,Abaco Beach Resort
259,Chanika,TZ,69.1,broken clouds,-5.4167,38.0167,New Rombo Green Hotel
262,Jutai,BR,79.63,overcast clouds,-5.1833,-68.9,
264,Ponta Delgada,PT,61.52,scattered clouds,37.7333,-25.6667,Vila Nova Hotel
265,Namibe,AO,69.4,overcast clouds,-15.1961,12.1522,Hotel Chik Chik Namibe
266,Warangal,IN,62.53,clear sky,18.0,79.5833,Supreme Hotels
272,Iaciara,BR,70.41,overcast clouds,-14.0958,-46.6317,Hotel Matinha
273,Brownsville,US,77.11,clear sky,25.9018,-97.4975,University Inn & Suites
275,Sao Gabriel Da Cachoeira,BR,77.4,moderate rain,-0.1303,-67.0892,Alarne - Área De Lazer Do Alto Rio Negro
276,Kavieng,PG,82.38,overcast clouds,-2.5744,150.7967,Nusa Island Retreat
280,Faanui,PF,82.06,light rain,-16.4833,-151.75,Bora-Bora Pearl Beach Resort & Spa
281,Airai,TL,60.69,overcast clouds,-8.9266,125.4092,Juvinal Martin
282,Boende,CD,72.52,overcast clouds,-0.2167,20.8667,
283,Hokitika,NZ,60.01,overcast clouds,-42.7167,170.9667,Beachfront Hotel Hokitika
286,Carnarvon,AU,73.47,clear sky,-24.8667,113.6333,Hospitality Carnarvon
288,Aripuana,BR,76.68,overcast clouds,-9.1667,-60.6333,
290,Sao Filipe,CV,74.95,clear sky,14.8961,-24.4956,Hotel Xaguate
291,Inirida,CO,78.84,light rain,3.8653,-67.9239,Fuente del Guania Hotel de Lujo
293,Caravelas,BR,77.22,very heavy rain,-17.7125,-39.2481,Pousada dos Navegantes
294,Martil,MA,60.87,scattered clouds,35.6166,-5.2752,فندق مرتيل
297,Emerald,AU,82.98,light rain,-23.5333,148.1667,The Irish Village
298,Vallenar,CL,77.56,few clouds,-28.5708,-70.7581,Humacao Bed & Breakfast
300,The Woodlands,US,75.92,scattered clouds,30.158,-95.4894,The Woodlands Resort
301,Guerrero Negro,MX,72.9,overcast clouds,27.9769,-114.0611,"Casa Laguna, Bed & Breakfast"
303,Kiama,AU,73.38,overcast clouds,-34.6833,150.8667,The Sebel Kiama Harbourside
304,Goure,NE,69.03,few clouds,13.9835,10.2704,
308,Asfi,MA,61.99,overcast clouds,32.2994,-9.2372,Hôtel Abda
309,Dingle,PH,73.18,broken clouds,10.9995,122.6711,SEGAYA PROPERTY
311,Cururupu,BR,77.86,overcast clouds,-1.8283,-44.8683,POUSADA TRAVÉS'CIA
312,Mporokoso,ZM,62.47,light rain,-9.3727,30.125,Government Guest House
316,Victoria,HK,66.94,light rain,22.2855,114.1577,Mini Hotel Central
318,Kumta,IN,71.15,few clouds,14.4167,74.4,Hotel Vaibhav Palace
326,Belmonte,BR,79.3,light rain,-15.8631,-38.8828,Pousada Monte Carmelo O Pão
328,Trairi,BR,80.8,scattered clouds,-3.2778,-39.2689,janelas do mar
329,Half Moon Bay,US,61.05,fog,37.4636,-122.4286,"The Ritz-Carlton, Half Moon Bay"
331,Poum,NC,80.94,few clouds,-20.2333,164.0167,Gîte kajeon
332,Blythe,US,75.65,scattered clouds,33.6103,-114.5964,Rodeway Inn & Suites
333,Salinopolis,BR,81.68,overcast clouds,-0.6136,-47.3561,Salinas Park Resort Maçarico AP101
340,Lima,PE,71.13,clear sky,-12.0432,-77.0282,Gran Hotel Bolivar Lima
341,Honolulu,US,80.42,few clouds,21.3069,-157.8583,Aston at the Executive Centre Hotel
344,San Fernando,PH,77.14,clear sky,15.0286,120.6898,Maharlika Hostel
345,The Valley,AI,80.46,few clouds,18.217,-63.0578,CeBlue Villas & Beach Resort
346,Antalaha,MG,76.95,broken clouds,-14.9003,50.2788,Hotel Vitasoa
347,Port Lincoln,AU,63.61,clear sky,-34.7333,135.8667,Port Lincoln Hotel
349,Mbanza-Ngungu,CD,67.51,overcast clouds,-5.25,14.8667,Hotel Full Business
354,Port Macquarie,AU,75.88,few clouds,-31.4333,152.9167,Rydges Port Macquarie
355,Kahului,US,78.82,few clouds,20.8947,-156.47,Maui Seaside Hotel
358,Oum Hadjer,TD,74.59,clear sky,13.2954,19.6966,
359,Iracoubo,GF,77.63,overcast clouds,5.4802,-53.2011,Le Gîte d’Iracoubo
363,Daloa,CI,75.78,clear sky,6.8774,-6.4502,Imans Hotel Daloa
364,Santa Cruz,BO,78.85,broken clouds,-17.8,-63.1667,Aviador Hotel Boutique
365,Huarmey,PE,72.61,few clouds,-10.0681,-78.1522,Hotel Miramar
367,Jilib,SO,76.05,light rain,0.4883,42.7854,
368,Victoria Point,AU,82.81,few clouds,-27.5833,153.3,Bay Retreat Motel
369,Hambantota,LK,75.27,overcast clouds,6.1241,81.1185,Bungalow 63
370,Merauke,ID,77.22,broken clouds,-8.4667,140.3333,
372,Cabo Rojo,PR,82.0,broken clouds,18.0866,-67.1457,Hotel Perichi's
373,Tucuman,AR,75.2,broken clouds,-26.8241,-65.2226,Dallas Hotel Tucuman
374,Ranot,TH,75.81,overcast clouds,7.7777,100.3213,Pakbanglake resort ปากบางเลค รีสอร์ท
380,Zarate,AR,88.2,broken clouds,-34.0981,-59.0286,Departamento céntrico 2 ambientes 45 mt2 en Zárate
383,Leeton,AU,75.88,broken clouds,-34.5667,146.4,Historic Hydro Motor Inn
387,Vila Velha,BR,75.15,overcast clouds,-20.3297,-40.2925,Quality Suites Vila Velha
388,Gunjur,GM,77.07,clear sky,13.2019,-16.7339,Dalaba Eco-Lodge Gambia
391,Manokwari,ID,77.83,overcast clouds,-0.8667,134.0833,Swiss Belhotel Manokwari
394,Camacha,PT,62.02,broken clouds,33.0833,-16.3333,Hotel Porto Santo & Spa
395,Tsabong,BW,75.81,broken clouds,-26.0217,22.401,Springbok Motel
397,Guaruja,BR,77.16,clear sky,-23.9931,-46.2564,Charme Hotel Guarujá
398,Inhambane,MZ,77.32,scattered clouds,-23.865,35.3833,Oceano
399,Rio Gallegos,AR,71.65,scattered clouds,-51.6226,-69.2181,Hotel Santa Cruz
400,Limaong,PH,76.69,overcast clouds,7.3606,122.3664,Malanta Beach
402,Arlit,NE,63.79,broken clouds,18.7369,7.3853,Case de Passage De la Prefecture
403,Marawi,PH,65.64,overcast clouds,7.9986,124.2928,Derogongan Residence
405,Casablanca,MA,60.33,overcast clouds,33.5928,-7.6192,فندق البيت المغربي كازبلانكا
406,Cabo San Lucas,MX,81.7,broken clouds,22.8909,-109.9124,Hotel Tesoro Los Cabos
407,Palu,ID,73.8,overcast clouds,-0.8917,119.8707,Hotel Santika Palu
408,Roura,GF,79.97,light rain,4.7263,-52.3274,Amazonie Découverte SARL
409,Nova Olinda Do Norte,BR,77.92,moderate rain,-3.8881,-59.0942,Casa Juazeiro
411,Bocas Del Toro,PA,84.07,broken clouds,9.3333,-82.25,Hotel Bocas del Toro
413,Zagora,MA,62.04,overcast clouds,30.3484,-5.8365,Prends Ton Temps
415,Ovalle,CL,79.57,scattered clouds,-30.5983,-71.2003,Hotel Altos de Tuqui
416,Salalah,OM,69.89,clear sky,17.0151,54.0924,"HAMDAN PLAZA HOTEL SALALAH, an HTG Hotel"
418,Cidreira,BR,71.19,clear sky,-30.1811,-50.2056,Hotel Castelo
419,Mollendo,PE,68.85,broken clouds,-17.0231,-72.0147,Hostal La Casa de Melgar
425,Touros,BR,83.3,overcast clouds,-5.1989,-35.4608,INN NEW HORIZON
428,Oussouye,SN,77.09,overcast clouds,12.485,-16.5469,Auberge du Routard
429,Kirakira,SB,83.08,overcast clouds,-10.4544,161.9205,SanBiz Lodge
431,Coihaique,CL,74.01,few clouds,-45.5752,-72.0662,Diego De Almagro Coyhaique
432,Rocha,UY,70.83,clear sky,-34.4833,-54.3333,Hotel Arrarte
436,Adelaide,AU,75.58,clear sky,-34.9333,138.6,The Chancellor on Currie
440,Kailua,US,80.58,scattered clouds,21.4022,-157.7394,Sheffield House Bed & Breakfast
442,Mattru,SL,76.33,few clouds,7.6244,-11.8332,"Mondkor Town, Bagbo Chiefdom, Bo District"
443,Yomou,GN,72.68,few clouds,7.5603,-9.2653,
444,Kavaratti,IN,78.71,clear sky,10.5669,72.642,Hotels in Lakshadweep Islands
445,Coquimbo,CL,67.73,clear sky,-29.9533,-71.3436,Punto de encuentro
447,Key Biscayne,US,73.44,few clouds,25.6937,-80.1628,"The Ritz-Carlton Key Biscayne, Miami"
448,Olinda,BR,82.13,scattered clouds,-8.0089,-34.8553,Hotel Albergue de Olinda
449,Ambulu,ID,76.55,overcast clouds,-8.345,113.6058,Hotel Ambulu Jember
450,Jennings,US,62.89,broken clouds,38.7192,-90.2604,First Western Inn
451,Kandrian,PG,82.44,overcast clouds,-6.2167,149.55,Kandrian Station
453,Ciudad Guayana,VE,76.3,overcast clouds,8.3533,-62.6528,Hotel Las Americas
454,Bitung,ID,76.05,overcast clouds,1.4451,125.1824,K2 Lembeh
455,Bom Jesus,BR,73.31,heavy intensity rain,-9.0744,-44.3586,Hotel Brasão & Floricultura Bella Flor
456,Tucuru,GT,74.68,scattered clouds,15.3,-90.0667,
458,Hoa Binh,VN,64.29,clear sky,20.8133,105.3383,Hoa Dao Hotel
459,Rio Grande,BR,73.51,clear sky,-32.035,-52.0986,Hotel Atlântico Rio Grande
460,Chengam,IN,62.87,clear sky,12.3,78.8,C.T.S.Lodge
461,Adolfo Lopez Mateos,MX,63.93,overcast clouds,28.4667,-107.3,Hotel Victor Inn
462,Las Cruces,US,75.47,clear sky,32.3123,-106.7783,Days End Lodge
464,San Patricio,US,81.01,clear sky,28.017,-97.5169,"Motel 6 Sinton, TX"
465,Mount Gambier,AU,63.68,clear sky,-37.8333,140.7667,The Commodore
466,Fenoarivo Atsinanana,MG,79.38,overcast clouds,-17.3667,49.4167,L'Oasis Lodge
467,Kaputa,ZM,68.02,light rain,-8.4689,29.6619,Chelelwa Charlets
471,Cayenne,GF,80.1,light rain,4.9333,-52.3333,Hôtel Le Dronmi
473,Jalingo,NG,77.5,broken clouds,8.8833,11.3667,Debright Motel
474,Flinders,AU,74.17,broken clouds,-34.5833,150.8552,Shellharbour Resort & Conference Centre
475,Quatre Cocos,MU,79.09,overcast clouds,-20.2078,57.7625,Sunrise Attitude Hotel
476,Sorong,ID,80.35,broken clouds,-0.8833,131.25,Waigo Splash Hotel
479,Boda,CF,81.5,overcast clouds,4.3189,17.4695,
480,Katherine,AU,82.72,broken clouds,-14.4667,132.2667,Pine Tree Motel
483,Paciran,ID,77.94,overcast clouds,-6.8767,112.3761,Tanjung Kodok Beach Resort
486,Maningrida,AU,80.46,moderate rain,-12.0667,134.2667,Dhukurrdji Lodge
488,Tevaitoa,PF,82.38,few clouds,-16.7833,-151.5,Hôtel Raiatea Lodge
490,Nouakchott,MR,75.13,broken clouds,18.0858,-15.9785,HOTEL IMAN
495,Doha,QA,67.98,clear sky,25.2867,51.5333,Movenpick Hotel Doha
500,Cartagena,CO,83.82,few clouds,10.3997,-75.5144,Hotel Colombia Real - Cartagena
501,Sucua,EC,79.54,light rain,-2.4667,-78.1667,Hotel Orellana
502,Wad Madani,SD,72.61,clear sky,14.4012,33.5199,فندق يوغسلافيا
503,Kabanjahe,ID,63.36,overcast clouds,3.1001,98.4908,Kos-Kosan wanita muslim bagoes kabanjahe
504,Garowe,SO,66.76,few clouds,8.4054,48.4845,Curubo Hotel
505,Lichinga,MZ,68.95,few clouds,-13.3128,35.2406,Residencial Bendiak
508,Diamantino,BR,72.28,overcast clouds,-14.4086,-56.4461,Hotel Delta
511,Nortelandia,BR,72.5,moderate rain,-14.4547,-56.8028,Hotel Karysmã
513,Tiznit,MA,62.44,overcast clouds,29.5833,-9.5,
514,Victor Harbor,AU,77.2,few clouds,-35.5667,138.6167,McCracken Country Club
515,Watsa,CD,67.95,overcast clouds,3.0372,29.5355,Hôtel Le Pacifique
521,Pisco,PE,71.65,clear sky,-13.7,-76.2167,Hotel San Isidro Oficial
526,Goma,CD,63.55,light rain,-1.6792,29.2228,Hotel la Versailles Goma
530,Bairiki,KI,84.2,scattered clouds,1.3292,172.9752,Tarawa Boutique Hotel
531,Rong Kwang,TH,65.55,clear sky,18.339,100.3174,Rong Kwang Hotel
533,Praia Da Vitoria,PT,60.76,few clouds,38.7333,-27.0667,Hotel Branco I
534,Mangai,CD,68.86,broken clouds,-4.05,19.5333,
538,Pochutla,MX,85.82,few clouds,15.7432,-96.4661,Hotel Posada San Jose
539,Comodoro Rivadavia,AR,84.06,scattered clouds,-45.8667,-67.5,Austral Hotel
540,Mount Isa,AU,87.57,scattered clouds,-20.7333,139.5,ibis Styles Mt Isa Verona
545,Miraflores,MX,77.76,clear sky,19.2167,-98.8083,Hotel Mansión
546,Nabire,ID,75.63,overcast clouds,-3.3667,135.4833,Hotel Nusantara Nabire
547,Atar,MR,72.86,clear sky,20.5169,-13.0499,Oumou Elghoura
548,Gemena,CD,82.92,overcast clouds,3.25,19.7667,Hôtel Goshen
549,Gorontalo,ID,73.98,broken clouds,0.5412,123.0595,Maqna Hotel by Prasanthi
551,Saint-Joseph,RE,77.36,overcast clouds,-21.3667,55.6167,"""Plantation Bed and Breakfast"
553,Beneditinos,BR,88.93,overcast clouds,-5.45,-42.3667,"Pousada, Pesque-Pague e Churrascaria Cabo Miguel"
554,Lazaro Cardenas,MX,81.86,clear sky,17.9583,-102.2,quinta antigua
555,Denpasar,ID,82.06,few clouds,-8.65,115.2167,ASTON Denpasar Hotel & Convention Center
559,Ixtapa,MX,78.03,clear sky,20.7,-105.2,Hotel Plaza Providencia
560,Manacapuru,BR,77.58,overcast clouds,-3.2997,-60.6206,Novo Hotel
564,Mayumba,GA,74.75,light rain,-3.432,10.6554,LIKWALE LODGE
565,Aborlan,PH,75.85,few clouds,9.4352,118.5492,Kevina Transient House
566,Vicente Guerrero,MX,78.19,clear sky,19.1194,-98.1708,Churros Inn
568,Cockburn Town,TC,77.99,few clouds,21.4612,-71.1419,Osprey Beach Hotel
569,Makakilo City,US,79.12,clear sky,21.3469,-158.0858,Marriott's Ko Olina Beach Club
572,Dhidhdhoo,MV,79.77,overcast clouds,6.8833,73.1,Dhidhoo beach
573,Ndioum,SN,76.89,overcast clouds,16.5129,-14.6471,l'hôtel samassa
574,Codrington,AU,64.53,clear sky,-38.2667,141.9667,Codrington Gardens Bed And Breakfast
576,Paka,MY,75.13,overcast clouds,4.6374,103.4368,RUMBIA RESORT VILLA Paka Terengganu
578,Waipawa,NZ,66.94,overcast clouds,-41.4122,175.5153,Tora Coastal Walk
580,Angoche,MZ,80.82,broken clouds,-16.2325,39.9086,Guest House HESADA
582,Nouadhibou,MR,66.74,clear sky,20.931,-17.0347,El Medina
584,Jibuti,DJ,67.6,few clouds,11.5,42.5,Orchid Main Camp Goubet
586,Baturaja,ID,72.09,overcast clouds,-4.1333,104.1667,"HOTEL Sekar Sunja, Baturaja Timur, Ogan Komering Ulu"
587,Paita,PE,75.76,overcast clouds,-5.0892,-81.1144,Hotel Náutico de Paita
589,Necochea,AR,77.67,clear sky,-38.5473,-58.7368,dyd -mar Hotel
593,Tutoia,BR,84.18,overcast clouds,-2.7619,-42.2744,Pousada Guará's
594,Chicama,PE,66.74,scattered clouds,-7.8447,-79.1469,Balihai Bungalows
595,Sokoto,NG,71.94,clear sky,13.0609,5.239,Giginya Coral Hotel
597,Tomatlan,MX,84.09,clear sky,19.9333,-105.25,El Salvial
601,Cocal,BR,65.88,scattered clouds,-28.6167,-49.35,Motel Tropical
602,Anloga,GH,80.82,overcast clouds,5.7947,0.8973,Pin Drop Hotel
603,Port Hedland,AU,77.05,clear sky,-20.3167,118.5667,The Esplanade Hotel
604,Prieska,ZA,71.58,broken clouds,-29.6641,22.7474,Avenue GuestHouse
606,Alta Floresta,BR,75.29,moderate rain,-9.8756,-56.0861,Floresta Amazonica Hotel
611,Fremont,US,61.48,broken clouds,37.5483,-121.9886,All Suites Islander Motels
613,Manohar Thana,IN,61.65,scattered clouds,24.24,76.8018,GEETA SADAN
615,Mersing,MY,73.31,overcast clouds,2.4312,103.8405,Timotel Hotel
619,Kota Tinggi,MY,78.84,overcast clouds,1.7381,103.8999,Canopy Tribe
620,Dekar,BW,78.3,clear sky,-21.5333,21.9333,
621,Barranca,PE,70.88,few clouds,-10.75,-77.7667,El Olivar Hospedaje
622,Puerto Del Rosario,ES,64.15,few clouds,28.5004,-13.8627,Hotel JM Puerto del Rosario
623,Curumani,CO,79.61,scattered clouds,9.1999,-73.5427,Hotel Mayumir
625,Bagtic,PH,71.87,scattered clouds,9.6864,123.0122,Mountain Tumicom
626,Ariquemes,BR,77.49,light rain,-9.9133,-63.0408,Hotel Sol Nascente - Ariquemes - RO
627,Biltine,TD,70.92,clear sky,14.5333,20.9167,Hôtel Trois Étoiles de Biltine
629,Garoua Boulai,CM,69.06,scattered clouds,5.8833,14.55,Motel l'as Vegas
630,Dwarka,IN,72.88,scattered clouds,22.2394,68.9678,Hotel Narayan Avezika Comfort
635,Luena,AO,62.02,light rain,-11.7833,19.9167,Hotel Kandamba
640,Del Rio,US,80.71,clear sky,29.3627,-100.8968,"Holiday Inn Express & Suites del Rio, an IHG Hotel"
641,Itoman,JP,71.98,broken clouds,26.1247,127.6694,Southern Beach Hotel & Resort Okinawa
643,Minna,NG,80.01,clear sky,9.6139,6.5569,Royal Park hotel & suites
645,Huicungo,PE,79.23,overcast clouds,-7.2833,-76.8,Gran Pajaten Trek
649,Ouadda,CF,72.09,overcast clouds,8.0777,22.4007,
650,Eirunepe,BR,76.66,overcast clouds,-6.6603,-69.8736,Atrás de você
652,Charcas,MX,70.11,clear sky,23.1333,-101.1167,Hotel El Malacate
653,Garchitorena,PH,78.69,scattered clouds,13.8804,123.6946,Site
654,Sulya,IN,73.44,few clouds,12.5667,75.3833,RIVER ISLAND LODGING
657,Lakatoro,VU,82.53,broken clouds,-16.0999,167.4164,Lakatoro Palm Lodge
661,Kudahuvadhoo,MV,80.35,overcast clouds,2.6708,72.8944,Niyama Private Islands Maldives
663,Wanlaweyn,SO,75.69,overcast clouds,2.6185,44.8938,GAASHAAN HOME
667,Barahona,DO,76.82,scattered clouds,18.2085,-71.1008,Hotel Caribe
668,Nkhata Bay,MW,78.28,scattered clouds,-11.6066,34.2907,Mayoka Village
670,Imbituba,BR,73.29,few clouds,-28.24,-48.6703,Praia Hotel Imbituba
673,Icod De Los Vinos,ES,69.01,scattered clouds,28.3724,-16.7119,Hotel Rural El Patio
677,Grand Gaube,MU,79.38,overcast clouds,-20.0064,57.6608,Veranda Paul et Virginie Hotel & Spa
678,Pangai,TO,84.31,light rain,-19.8,-174.35,Ha'apai Beach Resort
679,Cocobeach,GA,80.37,overcast clouds,1.0002,9.5823,Hotel Esperance
685,Sechura,PE,75.58,overcast clouds,-5.5569,-80.8222,Hospedaje Costa Bella
687,Kimberley,ZA,60.49,broken clouds,-28.7323,24.7623,Welgewandel Guesthouse
